ward_code,ward_name,zone,area_sqkm,population,latitude,longitude
A,Colaba,South Mumbai,12.5,210000,18.9067,72.8147
B,Byculla,South Mumbai,9.8,340000,18.9722,72.8356
C,Marine Lines,South Mumbai,7.2,180000,18.9442,72.8236
D,Grant Road,South Mumbai,8.1,260000,18.9625,72.8166
Z,Andheri West,Western,25.3,920000,19.1350,72.8295
R,Borivali,Western,28.4,1100000,19.2307,72.8567
S,Ghatkopar,Eastern,30.1,980000,19.0864,72.9081
